{
  "type": "FeatureCollection",
  "crs": {
    "type": "name",
    "properties": {
      "name": "EPSG:4326"
    }
  },
  "features": [
    {
      "type": "Feature",
      "id": 1,
      "geometry": {
        "type": "Point",
        "coordinates": [
          -75.4533599996267,
          43.2151599997768
        ]
      },
      "properties": {
        "city": "Rome",
        "state": "NY",
        "ObjectId": 1,
        "theaters": [
          {
            "name": "Capitol Theatre Summerstage"
          }
        ]
      }
    },
    {
      "type": "Feature",
      "id": 2,
      "geometry": {
        "type": "Point",
        "coordinates": [
          -73.7371000002453,
          40.5894600001673
        ]
      },
      "properties": {
        "city": "Atlantic Beach",
        "state": "NY",
        "ObjectId": 2,
        "theaters": [
          {
            "name": "Capri Theatre"
          }
        ]
      }
    },
    {
      "type": "Feature",
      "id": 3,
      "geometry": {
        "type": "Point",
        "coordinates": [
          -79.7950299996947,
          36.06907999968
        ]
      },
      "properties": {
        "city": "Greensboro",
        "state": "NC",
        "ObjectId": 3,
        "theaters": [
          {
            "name": "Carolina Arena Playhouse"
          }
        ]
      }
    },
    {
      "type": "Feature",
      "id": 478,
      "geometry": {
        "type": "Point",
        "coordinates": [
          -78.8823200000713,
          33.6937300002678
        ]
      },
      "properties": {
        "city": "Myrtle Beach",
        "state": "SC",
        "ObjectId": 478,
        "theaters": [
          {
            "name": "Carolina Circle Theatre"
          },
          {
            "name": "Myrtle Beach Playhouse"
          }
        ]
      }
    },
    {
      "type": "Feature",
      "id": 588,
      "geometry": {
        "type": "Point",
        "coordinates": [
          -69.6284899999592,
          43.8527699998957
        ]
      },
      "properties": {
        "city": "Boothbay Harbor",
        "state": "ME",
        "ObjectId": 588,
        "theaters": [
          {
            "name": "Carousel Music Theatre"
          },
          {
            "name": "Boothbay Playhouse"
          },
          {
            "name": "Theatre in the Woods, Woodland Players"
          }
        ]
      }
    },
    {
      "type": "Feature",
      "id": 320,
      "geometry": {
        "type": "Point",
        "coordinates": [
          -71.4161900000389,
          42.2800299996752
        ]
      },
      "properties": {
        "city": "Framingham",
        "state": "MA",
        "ObjectId": 320,
        "theaters": [
          {
            "name": "Carousel Theatre"
          },
          {
            "name": "Framingham Country Playhouse"
          }
        ]
      }
    },
    {
      "type": "Feature",
      "id": 621,
      "geometry": {
        "type": "Point",
        "coordinates": [
          -77.0319599999298,
          38.8903699998457
        ]
      },
      "properties": {
        "city": "Washington",
        "state": "DC",
        "ObjectId": 621,
        "theaters": [
          {
            "name": "Carter Barron Amphitheatre"
          },
          {
            "name": "Catholic University Summer Theatre"
          },
          {
            "name": "Collingwood Theatre"
          },
          {
            "name": "Roadside Playhouse"
          },
          {
            "name": "Meridian Drama Festival"
          },
          {
            "name": "Watergate Amphitheatre"
          }
        ]
      }
    },
    {
      "type": "Feature",
      "id": 8,
      "geometry": {
        "type": "Point",
        "coordinates": [
          -97.3308600002569,
          32.7509500000459
        ]
      },
      "properties": {
        "city": "Fort Worth",
        "state": "TX",
        "ObjectId": 8,
        "theaters": [
          {
            "name": "Casa Manana Theatre"
          }
        ]
      }
    },
    {
      "type": "Feature",
      "id": 535,
      "geometry": {
        "type": "Point",
        "coordinates": [
          -72.6074299999258,
          42.2069599999478
        ]
      },
      "properties": {
        "city": "Holyoke",
        "state": "MA",
        "ObjectId": 535,
        "theaters": [
          {
            "name": "Casino-in-the-Park Playhouse"
          },
          {
            "name": "Mt. Tom Playhouse"
          },
          {
            "name": "Valley Players"
          }
        ]
      }
    },
    {
      "type": "Feature",
      "id": 10,
      "geometry": {
        "type": "Point",
        "coordinates": [
          -82.4450000004362,
          28.0418000000382
        ]
      },
      "properties": {
        "city": "Castle Heights",
        "state": "NH",
        "ObjectId": 10,
        "theaters": [
          {
            "name": "Castle Heights Summer Theatre"
          }
        ]
      }
    },
    {
      "type": "Feature",
      "id": 12,
      "geometry": {
        "type": "Point",
        "coordinates": [
          -75.8484500003677,
          42.9295999997135
        ]
      },
      "properties": {
        "city": "Cazenovia",
        "state": "NY",
        "ObjectId": 12,
        "theaters": [
          {
            "name": "Cazenovia Summer Theatre"
          }
        ]
      }
    },
    {
      "type": "Feature",
      "id": 539,
      "geometry": {
        "type": "Point",
        "coordinates": [
          -73.9027399997512,
          41.5354400002689
        ]
      },
      "properties": {
        "city": "Fishkill",
        "state": "NY",
        "ObjectId": 539,
        "theaters": [
          {
            "name": "Cecilwood Theatre"
          },
          {
            "name": "Van Wyck Players"
          }
        ]
      }
    },
    {
      "type": "Feature",
      "id": 291,
      "geometry": {
        "type": "Point",
        "coordinates": [
          -71.7922600000152,
          42.5817600000977
        ]
      },
      "properties": {
        "city": "Fitchburg",
        "state": "MA",
        "ObjectId": 291,
        "theaters": [
          {
            "name": "Cecilwood Theatre"
          },
          {
            "name": "Lake Whalom Playhouse"
          },
          {
            "name": "Manhattan Players"
          }
        ]
      }
    },
    {
      "type": "Feature",
      "id": 15,
      "geometry": {
        "type": "Point",
        "coordinates": [
          -72.7999800003549,
          41.8804999998421
        ]
      },
      "properties": {
        "city": "Simsbury",
        "state": "CT",
        "ObjectId": 15,
        "theaters": [
          {
            "name": "Centennial Theater Festival"
          }
        ]
      }
    },
    {
      "type": "Feature",
      "id": 16,
      "geometry": {
        "type": "Point",
        "coordinates": [
          -119.626379999617,
          37.721259999936
        ]
      },
      "properties": {
        "city": "Yosemite National Park",
        "state": "CA",
        "ObjectId": 16,
        "theaters": [
          {
            "name": "Centennial Theatre"
          }
        ]
      }
    },
    {
      "type": "Feature",
      "id": 17,
      "geometry": {
        "type": "Point",
        "coordinates": [
          -105.51296000008,
          39.7992199999611
        ]
      },
      "properties": {
        "city": "Central City",
        "state": "CO",
        "ObjectId": 17,
        "theaters": [
          {
            "name": "Central City Opera House"
          }
        ]
      }
    },
    {
      "type": "Feature",
      "id": 24,
      "geometry": {
        "type": "Point",
        "coordinates": [
          -80.8379600002963,
          35.2228599996504
        ]
      },
      "properties": {
        "city": "Charlotte",
        "state": "NC",
        "ObjectId": 24,
        "theaters": [
          {
            "name": "Central Piedmont Summer Theatre"
          },
          {
            "name": "Charlotte Theatre Festival"
          }
        ]
      }
    },
    {
      "type": "Feature",
      "id": 19,
      "geometry": {
        "type": "Point",
        "coordinates": [
          -74.1237400000629,
          40.8603400001237
        ]
      },
      "properties": {
        "city": "Passaic",
        "state": "NJ",
        "ObjectId": 19,
        "theaters": [
          {
            "name": "Central Theatre"
          }
        ]
      }
    },
    {
      "type": "Feature",
      "id": 20,
      "geometry": {
        "type": "Point",
        "coordinates": [
          -81.3924499998475,
          41.4297899997119
        ]
      },
      "properties": {
        "city": "Chagrin Falls",
        "state": "OH",
        "ObjectId": 20,
        "theaters": [
          {
            "name": "Chagrin Falls Summer Theatre"
          }
        ]
      }
    },
    {
      "type": "Feature",
      "id": 21,
      "geometry": {
        "type": "Point",
        "coordinates": [
          -74.7946000001206,
          43.7515599998612
        ]
      },
      "properties": {
        "city": "Inlet",
        "state": "NY",
        "ObjectId": 21,
        "theaters": [
          {
            "name": "Chain O'Lakes Playhouse"
          }
        ]
      }
    },
    {
      "type": "Feature",
      "id": 22,
      "geometry": {
        "type": "Point",
        "coordinates": [
          -73.8312499997226,
          40.9361300002856
        ]
      },
      "properties": {
        "city": "Bronxville",
        "state": "NY",
        "ObjectId": 22,
        "theaters": [
          {
            "name": "Chamberlain Brown Players"
          }
        ]
      }
    },
    {
      "type": "Feature",
      "id": 23,
      "geometry": {
        "type": "Point",
        "coordinates": [
          -72.6814199997121,
          41.2842400001229
        ]
      },
      "properties": {
        "city": "Guilford",
        "state": "CT",
        "ObjectId": 23,
        "theaters": [
          {
            "name": "Chapel Playhouse"
          }
        ]
      }
    },
    {
      "type": "Feature",
      "id": 626,
      "geometry": {
        "type": "Point",
        "coordinates": [
          -71.6101100004464,
          44.3731600000561
        ]
      },
      "properties": {
        "city": "Whitefield",
        "state": "NH",
        "ObjectId": 626,
        "theaters": [
          {
            "name": "Chase Barn Playhouse"
          },
          {
            "name": "Forty-Niners, Chase Barn"
          },
          {
            "name": "Weathervane Theatre"
          }
        ]
      }
    },
    {
      "type": "Feature",
      "id": 26,
      "geometry": {
        "type": "Point",
        "coordinates": [
          -79.4658100002243,
          42.2051000001046
        ]
      },
      "properties": {
        "city": "Chautauqua",
        "state": "NY",
        "ObjectId": 26,
        "theaters": [
          {
            "name": "Chautauqua Repertory"
          }
        ]
      }
    },
    {
      "type": "Feature",
      "id": 757,
      "geometry": {
        "type": "Point",
        "coordinates": [
          -74.4263700000739,
          39.3628700001325
        ]
      },
      "properties": {
        "city": "Atlantic City",
        "state": "NJ",
        "ObjectId": 757,
        "theaters": [
          {
            "name": "Chelsea Playhouse"
          },
          {
            "name": "Atlantic Repertory"
          },
          {
            "name": "Vanguard Players, Masonic Temple"
          },
          {
            "name": "Quarterdeck Theatre"
          },
          {
            "name": "Surf Playhouse"
          }
        ]
      }
    },
    {
      "type": "Feature",
      "id": 28,
      "geometry": {
        "type": "Point",
        "coordinates": [
          -76.7988099997362,
          42.0904099997824
        ]
      },
      "properties": {
        "city": "Elmira",
        "state": "NY",
        "ObjectId": 28,
        "theaters": [
          {
            "name": "Chemung County Theatre"
          }
        ]
      }
    },
    {
      "type": "Feature",
      "id": 29,
      "geometry": {
        "type": "Point",
        "coordinates": [
          -85.6158399996552,
          44.7599900000711
        ]
      },
      "properties": {
        "city": "Traverse City",
        "state": "MI",
        "ObjectId": 29,
        "theaters": [
          {
            "name": "Cherry County Playhouse"
          }
        ]
      }
    },
    {
      "type": "Feature",
      "id": 30,
      "geometry": {
        "type": "Point",
        "coordinates": [
          -87.91572999983,
          42.1395499998844
        ]
      },
      "properties": {
        "city": "Wheeling",
        "state": "IL",
        "ObjectId": 30,
        "theaters": [
          {
            "name": "Chevy Chase Summer Theatre"
          }
        ]
      }
    },
    {
      "type": "Feature",
      "id": 326,
      "geometry": {
        "type": "Point",
        "coordinates": [
          -87.6324500002964,
          41.8842500001071
        ]
      },
      "properties": {
        "city": "Chicago",
        "state": "IL",
        "ObjectId": 326,
        "theaters": [
          {
            "name": "Chicago Tenthouse Theatre"
          },
          {
            "name": "Jack and Jill Players"
          },
          {
            "name": "Lake Front Players"
          },
          {
            "name": "Fullerton Park Theatre"
          }
        ]
      }
    },
    {
      "type": "Feature",
      "id": 32,
      "geometry": {
        "type": "Point",
        "coordinates": [
          -75.1423800000479,
          41.7347599999778
        ]
      },
      "properties": {
        "city": "Galilee",
        "state": "PA",
        "ObjectId": 32,
        "theaters": [
          {
            "name": "Chicopee Playhouse"
          }
        ]
      }
    },
    {
      "type": "Feature",
      "id": 33,
      "geometry": {
        "type": "Point",
        "coordinates": [
          -71.4619600000963,
          43.0902900000126
        ]
      },
      "properties": {
        "city": "Hooksett",
        "state": "NH",
        "ObjectId": 33,
        "theaters": [
          {
            "name": "China Dragon Playhouse"
          }
        ]
      }
    },
    {
      "type": "Feature",
      "id": 34,
      "geometry": {
        "type": "Point",
        "coordinates": [
          -92.4593300001146,
          44.0193200002322
        ]
      },
      "properties": {
        "city": "Rochester",
        "state": "MN",
        "ObjectId": 34,
        "theaters": [
          {
            "name": "Christy Players"
          }
        ]
      }
    },
    {
      "type": "Feature",
      "id": 669,
      "geometry": {
        "type": "Point",
        "coordinates": [
          -84.4568900001481,
          39.1619999998582
        ]
      },
      "properties": {
        "city": "Cincinnati",
        "state": "OH",
        "ObjectId": 669,
        "theaters": [
          {
            "name": "Cincinnati Summer Playhouse"
          },
          {
            "name": "Hot Summer Nights"
          },
          {
            "name": "Playhouse-in-the-Park"
          }
        ]
      }
    },
    {
      "type": "Feature",
      "id": 36,
      "geometry": {
        "type": "Point",
        "coordinates": [
          -92.2748499997691,
          34.7486999996885
        ]
      },
      "properties": {
        "city": "Little Rock",
        "state": "AR",
        "ObjectId": 36,
        "theaters": [
          {
            "name": "Civic Light Opera Company"
          }
        ]
      }
    },
    {
      "type": "Feature",
      "id": 37,
      "geometry": {
        "type": "Point",
        "coordinates": [
          -73.442779999619,
          44.656509999894
        ]
      },
      "properties": {
        "city": "Cliff Haven",
        "state": "NY",
        "ObjectId": 37,
        "theaters": [
          {
            "name": "Cliff Haven Summer Theatre"
          }
        ]
      }
    },
    {
      "type": "Feature",
      "id": 38,
      "geometry": {
        "type": "Point",
        "coordinates": [
          -72.5277800003003,
          41.2786400000214
        ]
      },
      "properties": {
        "city": "Clinton",
        "state": "CT",
        "ObjectId": 38,
        "theaters": [
          {
            "name": "Clinton Playhouse"
          }
        ]
      }
    },
    {
      "type": "Feature",
      "id": 39,
      "geometry": {
        "type": "Point",
        "coordinates": [
          -80.1977300002116,
          25.7748099999689
        ]
      },
      "properties": {
        "city": "Miami",
        "state": "FL",
        "ObjectId": 39,
        "theaters": [
          {
            "name": "Coconut Grove Playhouse"
          }
        ]
      }
    },
    {
      "type": "Feature",
      "id": 40,
      "geometry": {
        "type": "Point",
        "coordinates": [
          -116.775850000434,
          47.6716799999959
        ]
      },
      "properties": {
        "city": "Coeur d'Alene",
        "state": "ID",
        "ObjectId": 40,
        "theaters": [
          {
            "name": "Coeur D'Alene Summer Theatre/Carousel Players"
          }
        ]
      }
    },
    {
      "type": "Feature",
      "id": 778,
      "geometry": {
        "type": "Point",
        "coordinates": [
          -70.6183899996335,
          41.5534999998696
        ]
      },
      "properties": {
        "city": "Falmouth",
        "state": "MA",
        "ObjectId": 778,
        "theaters": [
          {
            "name": "College Light Opera Company"
          },
          {
            "name": "Highfield Playhouse"
          },
          {
            "name": "Falmouth Playhouse"
          },
          {
            "name": "Tanglewood Theatre"
          },
          {
            "name": "University Players Guild (UPG)"
          }
        ]
      }
    },
    {
      "type": "Feature",
      "id": 681,
      "geometry": {
        "type": "Point",
        "coordinates": [
          -81.3582199995766,
          41.1509400000895
        ]
      },
      "properties": {
        "city": "Kent",
        "state": "OH",
        "ObjectId": 681,
        "theaters": [
          {
            "name": "College Showboat Summer Theatre"
          },
          {
            "name": "Porthouse Theatre"
          }
        ]
      }
    },
    {
      "type": "Feature",
      "id": 43,
      "geometry": {
        "type": "Point",
        "coordinates": [
          -119.292319999567,
          34.280820000253
        ]
      },
      "properties": {
        "city": "Ventura",
        "state": "CA",
        "ObjectId": 43,
        "theaters": [
          {
            "name": "College Summer Theatre"
          }
        ]
      }
    },
    {
      "type": "Feature",
      "id": 644,
      "geometry": {
        "type": "Point",
        "coordinates": [
          -79.7111200003456,
          40.3316000000329
        ]
      },
      "properties": {
        "city": "Irwin",
        "state": "PA",
        "ObjectId": 644,
        "theaters": [
          {
            "name": "Colonial Manor Playhouse"
          },
          {
            "name": "White Barn Theatre"
          }
        ]
      }
    },
    {
      "type": "Feature",
      "id": 46,
      "geometry": {
        "type": "Point",
        "coordinates": [
          -73.7618200001338,
          42.7441199998035
        ]
      },
      "properties": {
        "city": "Latham",
        "state": "NY",
        "ObjectId": 46,
        "theaters": [
          {
            "name": "Colonie Summer Theatre"
          }
        ]
      }
    },
    {
      "type": "Feature",
      "id": 47,
      "geometry": {
        "type": "Point",
        "coordinates": [
          -121.487040000161,
          45.7277599997065
        ]
      },
      "properties": {
        "city": "White Salmon",
        "state": "WA",
        "ObjectId": 47,
        "theaters": [
          {
            "name": "Columbia Gorge Repertory Theatre"
          }
        ]
      }
    },
    {
      "type": "Feature",
      "id": 272,
      "geometry": {
        "type": "Point",
        "coordinates": [
          -92.0998499996687,
          46.7879599998427
        ]
      },
      "properties": {
        "city": "Duluth",
        "state": "MN",
        "ObjectId": 272,
        "theaters": [
          {
            "name": "Comedy Theatre"
          },
          {
            "name": "Little Theatre of Duluth"
          }
        ]
      }
    },
    {
      "type": "Feature",
      "id": 49,
      "geometry": {
        "type": "Point",
        "coordinates": [
          -73.6969699999357,
          41.2383300000728
        ]
      },
      "properties": {
        "city": "Bedford Hills",
        "state": "NY",
        "ObjectId": 49,
        "theaters": [
          {
            "name": "Community House"
          }
        ]
      }
    },
    {
      "type": "Feature",
      "id": 501,
      "geometry": {
        "type": "Point",
        "coordinates": [
          -74.6620900003453,
          41.6825899999231
        ]
      },
      "properties": {
        "city": "Lake Kiamesha",
        "state": "NY",
        "ObjectId": 501,
        "theaters": [
          {
            "name": "Concord Plaza Players"
          },
          {
            "name": "Monticello Playhouse"
          }
        ]
      }
    },
    {
      "type": "Feature",
      "id": 51,
      "geometry": {
        "type": "Point",
        "coordinates": [
          -84.7591400002175,
          44.3089699997069
        ]
      },
      "properties": {
        "city": "Houghton Lake",
        "state": "MI",
        "ObjectId": 51,
        "theaters": [
          {
            "name": "Houghton Lake Playhouse"
          }
        ]
      }
    },
    {
      "type": "Feature",
      "id": 52,
      "geometry": {
        "type": "Point",
        "coordinates": [
          -71.3647800002336,
          44.1582200001206
        ]
      },
      "properties": {
        "city": "Crawford Notch",
        "state": "NH",
        "ObjectId": 52,
        "theaters": [
          {
            "name": "House Club Theatre"
          }
        ]
      }
    },
    {
      "type": "Feature",
      "id": 380,
      "geometry": {
        "type": "Point",
        "coordinates": [
          -71.4119899996915,
          41.8238699997765
        ]
      },
      "properties": {
        "city": "Providence",
        "state": "RI",
        "ObjectId": 380,
        "theaters": [
          {
            "name": "Hummocks Circle Theatre"
          },
          {
            "name": "Brown Summer Theatre"
          }
        ]
      }
    },
    {
      "type": "Feature",
      "id": 734,
      "geometry": {
        "type": "Point",
        "coordinates": [
          -74.9095999997502,
          40.6362999998324
        ]
      },
      "properties": {
        "city": "Clinton",
        "state": "NJ",
        "ObjectId": 734,
        "theaters": [
          {
            "name": "Hunterdon Hills Playhouse"
          },
          {
            "name": "Starmakers\u2014Music Hall Theatre"
          }
        ]
      }
    },
    {
      "type": "Feature",
      "id": 55,
      "geometry": {
        "type": "Point",
        "coordinates": [
          -83.6504599997925,
          41.3757100001033
        ]
      },
      "properties": {
        "city": "Bowling Green",
        "state": "OH",
        "ObjectId": 55,
        "theaters": [
          {
            "name": "Huron Playhouse"
          }
        ]
      }
    },
    {
      "type": "Feature",
      "id": 56,
      "geometry": {
        "type": "Point",
        "coordinates": [
          -71.1843899997323,
          43.0355299998226
        ]
      },
      "properties": {
        "city": "Raymond",
        "state": "NH",
        "ObjectId": 56,
        "theaters": [
          {
            "name": "Hutchinson Summer Theatre"
          }
        ]
      }
    },
    {
      "type": "Feature",
      "id": 57,
      "geometry": {
        "type": "Point",
        "coordinates": [
          -73.9349899999481,
          41.7914999997855
        ]
      },
      "properties": {
        "city": "Hyde Park",
        "state": "NY",
        "ObjectId": 57,
        "theaters": [
          {
            "name": "Hyde Park Playhouse"
          }
        ]
      }
    },
    {
      "type": "Feature",
      "id": 141,
      "geometry": {
        "type": "Point",
        "coordinates": [
          -104.992020000385,
          39.7400100002571
        ]
      },
      "properties": {
        "city": "Denver",
        "state": "CO",
        "ObjectId": 141,
        "theaters": [
          {
            "name": "IASTA Theatre, University of Denver"
          },
          {
            "name": "Elitch's Gardens Theatre"
          }
        ]
      }
    },
    {
      "type": "Feature",
      "id": 59,
      "geometry": {
        "type": "Point",
        "coordinates": [
          -117.000379999825,
          46.7323500001297
        ]
      },
      "properties": {
        "city": "Moscow",
        "state": "ID",
        "ObjectId": 59,
        "theaters": [
          {
            "name": "Idaho Repetory Theatre Company"
          }
        ]
      }
    },
    {
      "type": "Feature",
      "id": 60,
      "geometry": {
        "type": "Point",
        "coordinates": [
          -87.4130099999341,
          39.4664899999946
        ]
      },
      "properties": {
        "city": "Terre Haute",
        "state": "IN",
        "ObjectId": 60,
        "theaters": [
          {
            "name": "Indiana State University Summer Stage"
          }
        ]
      }
    },
    {
      "type": "Feature",
      "id": 94,
      "geometry": {
        "type": "Point",
        "coordinates": [
          -73.7118100004444,
          43.4291400002632
        ]
      },
      "properties": {
        "city": "Lake George",
        "state": "NY",
        "ObjectId": 94,
        "theaters": [
          {
            "name": "Institute of Arts in the Theatre"
          },
          {
            "name": "Lake George Dinner Theatre"
          }
        ]
      }
    },
    {
      "type": "Feature",
      "id": 62,
      "geometry": {
        "type": "Point",
        "coordinates": [
          -82.1807900000993,
          36.598540000219
        ]
      },
      "properties": {
        "city": "Bristol",
        "state": "VA",
        "ObjectId": 62,
        "theaters": [
          {
            "name": "Intermont Outdoor Theatre"
          }
        ]
      }
    },
    {
      "type": "Feature",
      "id": 63,
      "geometry": {
        "type": "Point",
        "coordinates": [
          -91.5265300002221,
          41.6578199998473
        ]
      },
      "properties": {
        "city": "Iowa City",
        "state": "IA",
        "ObjectId": 63,
        "theaters": [
          {
            "name": "Iowa Summer Repertory, University of Iowa"
          }
        ]
      }
    },
    {
      "type": "Feature",
      "id": 516,
      "geometry": {
        "type": "Point",
        "coordinates": [
          -85.7666599996422,
          38.2548899996479
        ]
      },
      "properties": {
        "city": "Louisville",
        "state": "KY",
        "ObjectId": 516,
        "theaters": [
          {
            "name": "Iroquois Park Amphitheatre"
          },
          {
            "name": "Louisville Stock Company"
          },
          {
            "name": "Brown Theatre"
          },
          {
            "name": "Municipal Opera"
          },
          {
            "name": "Music Theatre Louisville"
          }
        ]
      }
    },
    {
      "type": "Feature",
      "id": 742,
      "geometry": {
        "type": "Point",
        "coordinates": [
          -70.098680000174,
          41.2836399998319
        ]
      },
      "properties": {
        "city": "Nantucket",
        "state": "MA",
        "ObjectId": 742,
        "theaters": [
          {
            "name": "Island Theatre"
          },
          {
            "name": "Barnstages"
          },
          {
            "name": "Straight Wharf Theatre"
          }
        ]
      }
    },
    {
      "type": "Feature",
      "id": 310,
      "geometry": {
        "type": "Point",
        "coordinates": [
          -76.4954600000249,
          42.4405100001049
        ]
      },
      "properties": {
        "city": "Ithaca",
        "state": "NY",
        "ObjectId": 310,
        "theaters": [
          {
            "name": "Ithaca College Theatre"
          },
          {
            "name": "Cornell University Playhouse"
          },
          {
            "name": "Hangar Theatre"
          },
          {
            "name": "Finger Lakes Drama Festival"
          }
        ]
      }
    },
    {
      "type": "Feature",
      "id": 67,
      "geometry": {
        "type": "Point",
        "coordinates": [
          -72.4490500003915,
          41.3459200003319
        ]
      },
      "properties": {
        "city": "Ivoryton",
        "state": "CT",
        "ObjectId": 67,
        "theaters": [
          {
            "name": "Ivoryton Playhouse"
          }
        ]
      }
    },
    {
      "type": "Feature",
      "id": 612,
      "geometry": {
        "type": "Point",
        "coordinates": [
          -74.0329599998312,
          40.1511400000633
        ]
      },
      "properties": {
        "city": "Spring Lake",
        "state": "NJ",
        "ObjectId": 612,
        "theaters": [
          {
            "name": "Ivy Tower Playhouse"
          },
          {
            "name": "Monmouth Community Players"
          },
          {
            "name": "Warren Players"
          }
        ]
      }
    },
    {
      "type": "Feature",
      "id": 69,
      "geometry": {
        "type": "Point",
        "coordinates": [
          -72.5892899995934,
          42.1012500000277
        ]
      },
      "properties": {
        "city": "Springfield",
        "state": "MA",
        "ObjectId": 69,
        "theaters": [
          {
            "name": "Ivy Players"
          }
        ]
      }
    },
    {
      "type": "Feature",
      "id": 71,
      "geometry": {
        "type": "Point",
        "coordinates": [
          -83.4451500002845,
          45.0615599999913
        ]
      },
      "properties": {
        "city": "Alpena",
        "state": "MI",
        "ObjectId": 71,
        "theaters": [
          {
            "name": "Jatoma Players"
          }
        ]
      }
    },
    {
      "type": "Feature",
      "id": 72,
      "geometry": {
        "type": "Point",
        "coordinates": [
          -83.2810999999668,
          30.8350500000311
        ]
      },
      "properties": {
        "city": "Valdost",
        "state": "GA",
        "ObjectId": 72,
        "theaters": [
          {
            "name": "Jekyll Island Musical Theatre Festival"
          }
        ]
      }
    },
    {
      "type": "Feature",
      "id": 73,
      "geometry": {
        "type": "Point",
        "coordinates": [
          -82.7753200004467,
          37.6707800000352
        ]
      },
      "properties": {
        "city": "Prestonburg",
        "state": "KY",
        "ObjectId": 73,
        "theaters": [
          {
            "name": "Jenny Wiley Theatre"
          }
        ]
      }
    },
    {
      "type": "Feature",
      "id": 683,
      "geometry": {
        "type": "Point",
        "coordinates": [
          -72.5950699999816,
          41.279730000188
        ]
      },
      "properties": {
        "city": "Madison",
        "state": "CT",
        "ObjectId": 683,
        "theaters": [
          {
            "name": "Jitney Players"
          },
          {
            "name": "Post Road Players"
          }
        ]
      }
    },
    {
      "type": "Feature",
      "id": 168,
      "geometry": {
        "type": "Point",
        "coordinates": [
          -72.1851200004371,
          40.9638100000336
        ]
      },
      "properties": {
        "city": "Easthampton",
        "state": "NY",
        "ObjectId": 168,
        "theaters": [
          {
            "name": "John Drew Theatre of Guild Hall"
          },
          {
            "name": "Guild Hall"
          }
        ]
      }
    },
    {
      "type": "Feature",
      "id": 542,
      "geometry": {
        "type": "Point",
        "coordinates": [
          -76.6092599995553,
          39.2905800002388
        ]
      },
      "properties": {
        "city": "Baltimore",
        "state": "MD",
        "ObjectId": 542,
        "theaters": [
          {
            "name": "Johns Hopkins Playhouse"
          },
          {
            "name": "New Cockpit in Court Summer Theatre"
          }
        ]
      }
    },
    {
      "type": "Feature",
      "id": 77,
      "geometry": {
        "type": "Point",
        "coordinates": [
          -85.5883899998553,
          42.2915700000131
        ]
      },
      "properties": {
        "city": "Kalamazoo",
        "state": "MI",
        "ObjectId": 77,
        "theaters": [
          {
            "name": "Kalamazoo Village Players"
          }
        ]
      }
    },
    {
      "type": "Feature",
      "id": 733,
      "geometry": {
        "type": "Point",
        "coordinates": [
          -94.5831099996031,
          39.103439999986
        ]
      },
      "properties": {
        "city": "Kansas City",
        "state": "MO",
        "ObjectId": 733,
        "theaters": [
          {
            "name": "Kansas City University Summer Theatre"
          },
          {
            "name": "Starlight Theatre"
          }
        ]
      }
    },
    {
      "type": "Feature",
      "id": 79,
      "geometry": {
        "type": "Point",
        "coordinates": [
          -88.4537699995927,
          47.2460800002055
        ]
      },
      "properties": {
        "city": "Calumet ",
        "state": "MI",
        "ObjectId": 79,
        "theaters": [
          {
            "name": "Keeweenaw Playhouse Guild"
          }
        ]
      }
    },
    {
      "type": "Feature",
      "id": 180,
      "geometry": {
        "type": "Point",
        "coordinates": [
          -83.0027499996282,
          39.9619900002087
        ]
      },
      "properties": {
        "city": "Columbus",
        "state": "OH",
        "ObjectId": 180,
        "theaters": [
          {
            "name": "Kenley Players"
          },
          {
            "name": "Hartman Theatre"
          }
        ]
      }
    },
    {
      "type": "Feature",
      "id": 453,
      "geometry": {
        "type": "Point",
        "coordinates": [
          -81.0394000000681,
          29.2035700002778
        ]
      },
      "properties": {
        "city": "Daytona Beach",
        "state": "FL",
        "ObjectId": 453,
        "theaters": [
          {
            "name": "Kenley Players"
          },
          {
            "name": "Daytona Beach Stock Company"
          },
          {
            "name": "Seaside Music Theater"
          }
        ]
      }
    },
    {
      "type": "Feature",
      "id": 82,
      "geometry": {
        "type": "Point",
        "coordinates": [
          -80.8123900001129,
          41.2362099997266
        ]
      },
      "properties": {
        "city": "Warren",
        "state": "OH",
        "ObjectId": 82,
        "theaters": [
          {
            "name": "Kenley Players"
          }
        ]
      }
    },
    {
      "type": "Feature",
      "id": 83,
      "geometry": {
        "type": "Point",
        "coordinates": [
          -76.0253400001303,
          40.8170200002361
        ]
      },
      "properties": {
        "city": "Barnesville",
        "state": "PA",
        "ObjectId": 83,
        "theaters": [
          {
            "name": "Kenley Players"
          }
        ]
      }
    },
    {
      "type": "Feature",
      "id": 415,
      "geometry": {
        "type": "Point",
        "coordinates": [
          -72.2805999997099,
          42.9333499999219
        ]
      },
      "properties": {
        "city": "Keene",
        "state": "NH",
        "ObjectId": 415,
        "theaters": [
          {
            "name": "Keene Summer Theatre"
          },
          {
            "name": "Repertory Playhouse"
          }
        ]
      }
    },
    {
      "type": "Feature",
      "id": 330,
      "geometry": {
        "type": "Point",
        "coordinates": [
          -70.4770299998,
          43.3634100003085
        ]
      },
      "properties": {
        "city": "Kennebunkport",
        "state": "ME",
        "ObjectId": 330,
        "theaters": [
          {
            "name": "Kennebunkport Playhouse"
          },
          {
            "name": "Garrick Players"
          }
        ]
      }
    },
    {
      "type": "Feature",
      "id": 86,
      "geometry": {
        "type": "Point",
        "coordinates": [
          -77.0919000001261,
          42.6154300000426
        ]
      },
      "properties": {
        "city": "Keuka Park",
        "state": "NY",
        "ObjectId": 86,
        "theaters": [
          {
            "name": "Keuka College Summer Theatre"
          }
        ]
      }
    },
    {
      "type": "Feature",
      "id": 87,
      "geometry": {
        "type": "Point",
        "coordinates": [
          -79.1501499998992,
          40.6229000002762
        ]
      },
      "properties": {
        "city": "Indiana",
        "state": "PA",
        "ObjectId": 87,
        "theaters": [
          {
            "name": "Keystone Repertory Theatre (Summer Theater-by-the-Grove)"
          }
        ]
      }
    },
    {
      "type": "Feature",
      "id": 88,
      "geometry": {
        "type": "Point",
        "coordinates": [
          -76.4793299999036,
          44.2315400003051
        ]
      },
      "properties": {
        "city": "Kingston",
        "state": "Ontario",
        "ObjectId": 88,
        "theaters": [
          {
            "name": "Kingston Repertory Theatre"
          }
        ]
      }
    },
    {
      "type": "Feature",
      "id": 437,
      "geometry": {
        "type": "Point",
        "coordinates": [
          -80.1349300004076,
          25.7933899998838
        ]
      },
      "properties": {
        "city": "Miami Beach",
        "state": "FL",
        "ObjectId": 437,
        "theaters": [
          {
            "name": "Kitty Davis Playhouse"
          },
          {
            "name": "Cameo Playhouse"
          },
          {
            "name": "Roosevelt Players"
          }
        ]
      }
    },
    {
      "type": "Feature",
      "id": 90,
      "geometry": {
        "type": "Point",
        "coordinates": [
          -76.9938099996941,
          41.2339599999086
        ]
      },
      "properties": {
        "city": "South Williamsport",
        "state": "PA",
        "ObjectId": 90,
        "theaters": [
          {
            "name": "Knickerbocker Theatre"
          }
        ]
      }
    },
    {
      "type": "Feature",
      "id": 91,
      "geometry": {
        "type": "Point",
        "coordinates": [
          -117.272040000104,
          32.8427899999618
        ]
      },
      "properties": {
        "city": "La Jolla",
        "state": "CA",
        "ObjectId": 91,
        "theaters": [
          {
            "name": "La Jolla Playhouse"
          }
        ]
      }
    },
    {
      "type": "Feature",
      "id": 92,
      "geometry": {
        "type": "Point",
        "coordinates": [
          -117.781530000425,
          33.5453600003085
        ]
      },
      "properties": {
        "city": "Laguna Beach",
        "state": "CA",
        "ObjectId": 92,
        "theaters": [
          {
            "name": "Laguna Summer Theatre"
          }
        ]
      }
    },
    {
      "type": "Feature",
      "id": 95,
      "geometry": {
        "type": "Point",
        "coordinates": [
          -73.8404599996309,
          43.316769999918
        ]
      },
      "properties": {
        "city": "Lake Luzerne",
        "state": "NY",
        "ObjectId": 95,
        "theaters": [
          {
            "name": "Lake Luzerne Playhouse"
          }
        ]
      }
    },
    {
      "type": "Feature",
      "id": 96,
      "geometry": {
        "type": "Point",
        "coordinates": [
          -73.982760000171,
          44.2821000000681
        ]
      },
      "properties": {
        "city": "Lake Placid",
        "state": "NY",
        "ObjectId": 96,
        "theaters": [
          {
            "name": "Lake Placid Players"
          }
        ]
      }
    },
    {
      "type": "Feature",
      "id": 97,
      "geometry": {
        "type": "Point",
        "coordinates": [
          -71.4383499998953,
          42.5803799997158
        ]
      },
      "properties": {
        "city": "Westford",
        "state": "MA",
        "ObjectId": 97,
        "theaters": [
          {
            "name": "Lake Shore Players"
          }
        ]
      }
    },
    {
      "type": "Feature",
      "id": 98,
      "geometry": {
        "type": "Point",
        "coordinates": [
          -78.9781600000926,
          42.6814599996781
        ]
      },
      "properties": {
        "city": "Derby",
        "state": "NY",
        "ObjectId": 98,
        "theaters": [
          {
            "name": "Lake Shore Playhouse"
          }
        ]
      }
    },
    {
      "type": "Feature",
      "id": 99,
      "geometry": {
        "type": "Point",
        "coordinates": [
          -70.8586399999651,
          43.5656800003178
        ]
      },
      "properties": {
        "city": "Shapleigh",
        "state": "ME",
        "ObjectId": 99,
        "theaters": [
          {
            "name": "Lake Shore Playhouse"
          }
        ]
      }
    },
    {
      "type": "Feature",
      "id": 100,
      "geometry": {
        "type": "Point",
        "coordinates": [
          -82.4288700003149,
          35.2254899997008
        ]
      },
      "properties": {
        "city": "Tuxedo",
        "state": "NC",
        "ObjectId": 100,
        "theaters": [
          {
            "name": "Lake Summit Playhouse"
          }
        ]
      }
    },
    {
      "type": "Feature",
      "id": 101,
      "geometry": {
        "type": "Point",
        "coordinates": [
          -71.3128399998007,
          42.6458800002324
        ]
      },
      "properties": {
        "city": "Lowell",
        "state": "MA",
        "ObjectId": 101,
        "theaters": [
          {
            "name": "Concord Theatre Company"
          }
        ]
      }
    },
    {
      "type": "Feature",
      "id": 488,
      "geometry": {
        "type": "Point",
        "coordinates": [
          -73.0572699995805,
          41.2251700003137
        ]
      },
      "properties": {
        "city": "Milford",
        "state": "CT",
        "ObjectId": 488,
        "theaters": [
          {
            "name": "Connecticut Players"
          },
          {
            "name": "Milford Playhouse"
          }
        ]
      }
    },
    {
      "type": "Feature",
      "id": 103,
      "geometry": {
        "type": "Point",
        "coordinates": [
          -72.2499299995539,
          41.8085499997437
        ]
      },
      "properties": {
        "city": "Storrs",
        "state": "CT",
        "ObjectId": 103,
        "theaters": [
          {
            "name": "Connecticut Repertory Theatre"
          }
        ]
      }
    },
    {
      "type": "Feature",
      "id": 105,
      "geometry": {
        "type": "Point",
        "coordinates": [
          -77.0545600000023,
          42.1432599998033
        ]
      },
      "properties": {
        "city": "Corning",
        "state": "NY",
        "ObjectId": 105,
        "theaters": [
          {
            "name": "Corning Summer Theatre"
          }
        ]
      }
    },
    {
      "type": "Feature",
      "id": 106,
      "geometry": {
        "type": "Point",
        "coordinates": [
          -76.1748400003675,
          42.6034799997035
        ]
      },
      "properties": {
        "city": "Cortland",
        "state": "NY",
        "ObjectId": 106,
        "theaters": [
          {
            "name": "Cortland Repertory Theatre"
          }
        ]
      }
    },
    {
      "type": "Feature",
      "id": 107,
      "geometry": {
        "type": "Point",
        "coordinates": [
          -87.9367599999074,
          42.0968700000852
        ]
      },
      "properties": {
        "city": "Prospect Heights",
        "state": "IL",
        "ObjectId": 107,
        "theaters": [
          {
            "name": "Country Club Theatre"
          }
        ]
      }
    },
    {
      "type": "Feature",
      "id": 108,
      "geometry": {
        "type": "Point",
        "coordinates": [
          -73.2313099997811,
          41.8312200001457
        ]
      },
      "properties": {
        "city": "Goshen",
        "state": "CT",
        "ObjectId": 108,
        "theaters": [
          {
            "name": "The Country Theatre"
          }
        ]
      }
    },
    {
      "type": "Feature",
      "id": 425,
      "geometry": {
        "type": "Point",
        "coordinates": [
          -73.7634400003576,
          41.0337899999297
        ]
      },
      "properties": {
        "city": "White Plains",
        "state": "NY",
        "ObjectId": 425,
        "theaters": [
          {
            "name": "County Center Summer Theatre"
          },
          {
            "name": "Ridgeway Playhouse"
          }
        ]
      }
    },
    {
      "type": "Feature",
      "id": 110,
      "geometry": {
        "type": "Point",
        "coordinates": [
          -74.149749999564,
          41.1149400000972
        ]
      },
      "properties": {
        "city": "Suffern",
        "state": "NY",
        "ObjectId": 110,
        "theaters": [
          {
            "name": "County Players"
          }
        ]
      }
    },
    {
      "type": "Feature",
      "id": 111,
      "geometry": {
        "type": "Point",
        "coordinates": [
          -74.3840799997653,
          41.671329999926
        ]
      },
      "properties": {
        "city": "Cragsmoor",
        "state": "NY",
        "ObjectId": 111,
        "theaters": [
          {
            "name": "Cragsmoor Players"
          }
        ]
      }
    },
    {
      "type": "Feature",
      "id": 112,
      "geometry": {
        "type": "Point",
        "coordinates": [
          -106.926629999634,
          37.8512499998987
        ]
      },
      "properties": {
        "city": "Creede",
        "state": "CO",
        "ObjectId": 112,
        "theaters": [
          {
            "name": "Creede Repertory Theatre"
          }
        ]
      }
    },
    {
      "type": "Feature",
      "id": 113,
      "geometry": {
        "type": "Point",
        "coordinates": [
          -77.1308699996211,
          38.8495399997676
        ]
      },
      "properties": {
        "city": "Bailey's Crossroads",
        "state": "VA",
        "ObjectId": 113,
        "theaters": [
          {
            "name": "Crossroads Theatre"
          }
        ]
      }
    },
    {
      "type": "Feature",
      "id": 114,
      "geometry": {
        "type": "Point",
        "coordinates": [
          -73.8007700004357,
          43.6525999997195
        ]
      },
      "properties": {
        "city": "Chestertown",
        "state": "NY",
        "ObjectId": 114,
        "theaters": [
          {
            "name": "Crystal Lake Lodge"
          }
        ]
      }
    },
    {
      "type": "Feature",
      "id": 115,
      "geometry": {
        "type": "Point",
        "coordinates": [
          -96.7951200002353,
          32.7782199997912
        ]
      },
      "properties": {
        "city": "Dallas",
        "state": "TX",
        "ObjectId": 115,
        "theaters": [
          {
            "name": "Dallas Summer Musicals"
          }
        ]
      }
    },
    {
      "type": "Feature",
      "id": 117,
      "geometry": {
        "type": "Point",
        "coordinates": [
          -74.0006300001667,
          40.2490300000844
        ]
      },
      "properties": {
        "city": "Deal",
        "state": "NJ",
        "ObjectId": 117,
        "theaters": [
          {
            "name": "Deal Conservatoire"
          }
        ]
      }
    },
    {
      "type": "Feature",
      "id": 118,
      "geometry": {
        "type": "Point",
        "coordinates": [
          -76.1953900000459,
          40.6854600001988
        ]
      },
      "properties": {
        "city": "Pottsville",
        "state": "PA",
        "ObjectId": 118,
        "theaters": [
          {
            "name": "Deer Lake Theatre"
          }
        ]
      }
    },
    {
      "type": "Feature",
      "id": 119,
      "geometry": {
        "type": "Point",
        "coordinates": [
          -87.841729999998,
          42.2510299999402
        ]
      },
      "properties": {
        "city": "Lake Forest",
        "state": "IL",
        "ObjectId": 119,
        "theaters": [
          {
            "name": "Deerpath Theatre"
          }
        ]
      }
    },
    {
      "type": "Feature",
      "id": 120,
      "geometry": {
        "type": "Point",
        "coordinates": [
          -70.6797199998998,
          44.1092000000678
        ]
      },
      "properties": {
        "city": "Harrison",
        "state": "ME",
        "ObjectId": 120,
        "theaters": [
          {
            "name": "Deertrees Theatre"
          }
        ]
      }
    },
    {
      "type": "Feature",
      "id": 700,
      "geometry": {
        "type": "Point",
        "coordinates": [
          -74.0071400003009,
          40.7145500001758
        ]
      },
      "properties": {
        "city": "New York",
        "state": "NY",
        "ObjectId": 700,
        "theaters": [
          {
            "name": "Delacorte Theater"
          },
          {
            "name": "Free Little Theatre Players"
          },
          {
            "name": "Police Gazette Players"
          },
          {
            "name": "Randall\u2019s Island Summer Theatre"
          }
        ]
      }
    },
    {
      "type": "Feature",
      "id": 122,
      "geometry": {
        "type": "Point",
        "coordinates": [
          -82.5181900001563,
          40.0678400000318
        ]
      },
      "properties": {
        "city": "Granville",
        "state": "OH",
        "ObjectId": 122,
        "theaters": [
          {
            "name": "Denison Summer Theatre"
          }
        ]
      }
    },
    {
      "type": "Feature",
      "id": 123,
      "geometry": {
        "type": "Point",
        "coordinates": [
          -73.4352600002547,
          44.1842099997931
        ]
      },
      "properties": {
        "city": "Westport",
        "state": "NY",
        "ObjectId": 123,
        "theaters": [
          {
            "name": "Depot Theatre"
          }
        ]
      }
    },
    {
      "type": "Feature",
      "id": 124,
      "geometry": {
        "type": "Point",
        "coordinates": [
          -107.879299999687,
          37.2736700002769
        ]
      },
      "properties": {
        "city": "Durango",
        "state": "CO",
        "ObjectId": 124,
        "theaters": [
          {
            "name": "Diamond Circle Melodrama"
          }
        ]
      }
    },
    {
      "type": "Feature",
      "id": 125,
      "geometry": {
        "type": "Point",
        "coordinates": [
          -70.4568199998802,
          44.5311500002511
        ]
      },
      "properties": {
        "city": "Dixfield",
        "state": "ME",
        "ObjectId": 125,
        "theaters": [
          {
            "name": "Dixfield Summer Theatre"
          }
        ]
      }
    },
    {
      "type": "Feature",
      "id": 350,
      "geometry": {
        "type": "Point",
        "coordinates": [
          -73.1671099998613,
          44.0149900002564
        ]
      },
      "properties": {
        "city": "Middlebury",
        "state": "VT",
        "ObjectId": 350,
        "theaters": [
          {
            "name": "Dog Team Playhouse"
          },
          {
            "name": "Green Mountain Playhouse"
          }
        ]
      }
    },
    {
      "type": "Feature",
      "id": 127,
      "geometry": {
        "type": "Point",
        "coordinates": [
          -87.6099399997372,
          41.6400999998289
        ]
      },
      "properties": {
        "city": "Dollton",
        "state": "IL",
        "ObjectId": 127,
        "theaters": [
          {
            "name": "Dorchester Club"
          }
        ]
      }
    },
    {
      "type": "Feature",
      "id": 128,
      "geometry": {
        "type": "Point",
        "coordinates": [
          -73.0984100000185,
          43.2544400001723
        ]
      },
      "properties": {
        "city": "Dorset",
        "state": "VT",
        "ObjectId": 128,
        "theaters": [
          {
            "name": "Dorset Theatre Festival"
          }
        ]
      }
    },
    {
      "type": "Feature",
      "id": 129,
      "geometry": {
        "type": "Point",
        "coordinates": [
          -87.7019200000681,
          41.722430000323
        ]
      },
      "properties": {
        "city": "Evergreen Park",
        "state": "IL",
        "ObjectId": 129,
        "theaters": [
          {
            "name": "Drury Lane Theatre"
          }
        ]
      }
    },
    {
      "type": "Feature",
      "id": 618,
      "geometry": {
        "type": "Point",
        "coordinates": [
          -74.9251299998219,
          42.7006800001424
        ]
      },
      "properties": {
        "city": "Cooperstown",
        "state": "NY",
        "ObjectId": 618,
        "theaters": [
          {
            "name": "Duke's Oak Theatre"
          },
          {
            "name": "Leatherstocking Theatre Company"
          },
          {
            "name": "Washington Square Players"
          }
        ]
      }
    },
    {
      "type": "Feature",
      "id": 148,
      "geometry": {
        "type": "Point",
        "coordinates": [
          -79.3357800001152,
          42.4872399998645
        ]
      },
      "properties": {
        "city": "Dunkirk",
        "state": "NY",
        "ObjectId": 148,
        "theaters": [
          {
            "name": "Dunkirk Summer Playhouse"
          },
          {
            "name": "Fair Players"
          }
        ]
      }
    },
    {
      "type": "Feature",
      "id": 132,
      "geometry": {
        "type": "Point",
        "coordinates": [
          -70.6844099997936,
          42.0269499999361
        ]
      },
      "properties": {
        "city": "Duxbury",
        "state": "MA",
        "ObjectId": 132,
        "theaters": [
          {
            "name": "Duxbury Playhouse"
          }
        ]
      }
    },
    {
      "type": "Feature",
      "id": 133,
      "geometry": {
        "type": "Point",
        "coordinates": [
          -80.0634500004247,
          26.4739900001211
        ]
      },
      "properties": {
        "city": "Martha's Vineyard",
        "state": "MA",
        "ObjectId": 133,
        "theaters": [
          {
            "name": "East Chop Playhouse"
          }
        ]
      }
    },
    {
      "type": "Feature",
      "id": 503,
      "geometry": {
        "type": "Point",
        "coordinates": [
          -71.1251299999516,
          44.0494499997944
        ]
      },
      "properties": {
        "city": "North Conway",
        "state": "NH",
        "ObjectId": 503,
        "theaters": [
          {
            "name": "Eastern Slope Playhouse"
          },
          {
            "name": "Mount Washington Valley Theatre Company"
          }
        ]
      }
    },
    {
      "type": "Feature",
      "id": 135,
      "geometry": {
        "type": "Point",
        "coordinates": [
          -75.2098299995628,
          40.691199999712
        ]
      },
      "properties": {
        "city": "Easton",
        "state": "PA",
        "ObjectId": 135,
        "theaters": [
          {
            "name": "Easton Summer Theatre"
          }
        ]
      }
    },
    {
      "type": "Feature",
      "id": 136,
      "geometry": {
        "type": "Point",
        "coordinates": [
          -73.302609999839,
          41.2515099999859
        ]
      },
      "properties": {
        "city": "Easton",
        "state": "CT",
        "ObjectId": 136,
        "theaters": [
          {
            "name": "Easton Summer Theatre"
          }
        ]
      }
    },
    {
      "type": "Feature",
      "id": 212,
      "geometry": {
        "type": "Point",
        "coordinates": [
          -78.7249899999501,
          40.4847399998091
        ]
      },
      "properties": {
        "city": "Ebensburg",
        "state": "PA",
        "ObjectId": 212,
        "theaters": [
          {
            "name": "Ebensburg Summer Theatre"
          },
          {
            "name": "Allegheny Highlands Regional Theatre"
          }
        ]
      }
    },
    {
      "type": "Feature",
      "id": 138,
      "geometry": {
        "type": "Point",
        "coordinates": [
          -77.3807600000313,
          35.6121499996931
        ]
      },
      "properties": {
        "city": "Greenville",
        "state": "NC",
        "ObjectId": 138,
        "theaters": [
          {
            "name": "ECU/Loessin Summer Theatre"
          }
        ]
      }
    },
    {
      "type": "Feature",
      "id": 139,
      "geometry": {
        "type": "Point",
        "coordinates": [
          -74.8291400000128,
          41.9000499999806
        ]
      },
      "properties": {
        "city": "Livingston Manor",
        "state": "NY",
        "ObjectId": 139,
        "theaters": [
          {
            "name": "Edgewood Players"
          }
        ]
      }
    },
    {
      "type": "Feature",
      "id": 756,
      "geometry": {
        "type": "Point",
        "coordinates": [
          -105.93823999968,
          35.6917700001716
        ]
      },
      "properties": {
        "city": "Santa Fe",
        "state": "NM",
        "ObjectId": 756,
        "theaters": [
          {
            "name": "El Teatro de Santa Fe"
          },
          {
            "name": "Summerhouse Theatre"
          }
        ]
      }
    },
    {
      "type": "Feature",
      "id": 455,
      "geometry": {
        "type": "Point",
        "coordinates": [
          -74.3951300000055,
          41.7173700002477
        ]
      },
      "properties": {
        "city": "Ellenville",
        "state": "NY",
        "ObjectId": 455,
        "theaters": [
          {
            "name": "Ellensville Playhouse"
          },
          {
            "name": "Shadowland"
          }
        ]
      }
    },
    {
      "type": "Feature",
      "id": 143,
      "geometry": {
        "type": "Point",
        "coordinates": [
          -73.7914299999327,
          42.2528200000156
        ]
      },
      "properties": {
        "city": "Milton-on-Hudson",
        "state": "NY",
        "ObjectId": 143,
        "theaters": [
          {
            "name": "Elverhoj Theatre"
          }
        ]
      }
    },
    {
      "type": "Feature",
      "id": 363,
      "geometry": {
        "type": "Point",
        "coordinates": [
          -71.0567399997302,
          42.3586599998984
        ]
      },
      "properties": {
        "city": "Boston",
        "state": "MA",
        "ObjectId": 363,
        "theaters": [
          {
            "name": "Emerson College Summer Theatre"
          },
          {
            "name": "Hotel Bostonian Theatre"
          },
          {
            "name": "Boston College Summer Theatre"
          },
          {
            "name": "Boston Summer Theatre"
          }
        ]
      }
    },
    {
      "type": "Feature",
      "id": 145,
      "geometry": {
        "type": "Point",
        "coordinates": [
          -118.127680000083,
          33.9407699997885
        ]
      },
      "properties": {
        "city": "Downey",
        "state": "CA",
        "ObjectId": 145,
        "theaters": [
          {
            "name": "Encore Theatre"
          }
        ]
      }
    },
    {
      "type": "Feature",
      "id": 146,
      "geometry": {
        "type": "Point",
        "coordinates": [
          -76.9840199998276,
          38.0168600001868
        ]
      },
      "properties": {
        "city": "Essex-on-Lake-Champlain",
        "state": "NY",
        "ObjectId": 146,
        "theaters": [
          {
            "name": "Essex Players"
          }
        ]
      }
    },
    {
      "type": "Feature",
      "id": 147,
      "geometry": {
        "type": "Point",
        "coordinates": [
          -73.0926299996303,
          43.8000500003223
        ]
      },
      "properties": {
        "city": "Brandon",
        "state": "VT",
        "ObjectId": 147,
        "theaters": [
          {
            "name": "Ethan Allen Players"
          }
        ]
      }
    },
    {
      "type": "Feature",
      "id": 149,
      "geometry": {
        "type": "Point",
        "coordinates": [
          -77.2778395921283,
          38.8379945070928
        ]
      },
      "properties": {
        "city": "Fairfax County",
        "state": "VA",
        "ObjectId": 149,
        "theaters": [
          {
            "name": "Fairfax County Summer Theatre"
          }
        ]
      }
    },
    {
      "type": "Feature",
      "id": 150,
      "geometry": {
        "type": "Point",
        "coordinates": [
          -70.9038900003388,
          41.6356700001284
        ]
      },
      "properties": {
        "city": "Fairhaven",
        "state": "MA",
        "ObjectId": 150,
        "theaters": [
          {
            "name": "Fairhaven Summer Theatre"
          }
        ]
      }
    },
    {
      "type": "Feature",
      "id": 151,
      "geometry": {
        "type": "Point",
        "coordinates": [
          -74.451469999904,
          42.6456699997291
        ]
      },
      "properties": {
        "city": "Greenbush",
        "state": "NY",
        "ObjectId": 151,
        "theaters": [
          {
            "name": "Greenbush Theatre"
          }
        ]
      }
    },
    {
      "type": "Feature",
      "id": 152,
      "geometry": {
        "type": "Point",
        "coordinates": [
          -72.5984300000798,
          42.5875800000375
        ]
      },
      "properties": {
        "city": "Greenfield",
        "state": "MA",
        "ObjectId": 152,
        "theaters": [
          {
            "name": "Greenfield Summer Theatre"
          }
        ]
      }
    },
    {
      "type": "Feature",
      "id": 153,
      "geometry": {
        "type": "Point",
        "coordinates": [
          -80.3878200001677,
          41.4054699998201
        ]
      },
      "properties": {
        "city": "Greenville",
        "state": "PA",
        "ObjectId": 153,
        "theaters": [
          {
            "name": "Greenville Summer Theatre"
          }
        ]
      }
    },
    {
      "type": "Feature",
      "id": 154,
      "geometry": {
        "type": "Point",
        "coordinates": [
          -73.6397699996965,
          41.0642500001798
        ]
      },
      "properties": {
        "city": "Greenwich",
        "state": "CT",
        "ObjectId": 154,
        "theaters": [
          {
            "name": "Greenwich Guild"
          }
        ]
      }
    },
    {
      "type": "Feature",
      "id": 155,
      "geometry": {
        "type": "Point",
        "coordinates": [
          -70.1989499997981,
          43.6555499998204
        ]
      },
      "properties": {
        "city": "Peaks Island",
        "state": "ME",
        "ObjectId": 155,
        "theaters": [
          {
            "name": "Greenwood Gardens Playhouse"
          }
        ]
      }
    },
    {
      "type": "Feature",
      "id": 156,
      "geometry": {
        "type": "Point",
        "coordinates": [
          -73.1982699995638,
          41.9919400000566
        ]
      },
      "properties": {
        "city": "Norfolk",
        "state": "CT",
        "ObjectId": 156,
        "theaters": [
          {
            "name": "Greenwoods Theatre at Norfolk"
          }
        ]
      }
    },
    {
      "type": "Feature",
      "id": 157,
      "geometry": {
        "type": "Point",
        "coordinates": [
          -77.6163199995708,
          43.1558000002159
        ]
      },
      "properties": {
        "city": "Rochester",
        "state": "NY",
        "ObjectId": 157,
        "theaters": [
          {
            "name": "Gregory St. Playhouse"
          }
        ]
      }
    },
    {
      "type": "Feature",
      "id": 672,
      "geometry": {
        "type": "Point",
        "coordinates": [
          -76.471160000261,
          40.2483800002162
        ]
      },
      "properties": {
        "city": "Mt. Gretna",
        "state": "PA",
        "ObjectId": 672,
        "theaters": [
          {
            "name": "Gretna Players"
          },
          {
            "name": "Gretna Theatre"
          },
          {
            "name": "Timbers Dinner Theatre"
          }
        ]
      }
    },
    {
      "type": "Feature",
      "id": 160,
      "geometry": {
        "type": "Point",
        "coordinates": [
          -74.7421900002326,
          40.9868600000133
        ]
      },
      "properties": {
        "city": "Andover",
        "state": "NJ",
        "ObjectId": 160,
        "theaters": [
          {
            "name": "Grist Mill Playhouse"
          }
        ]
      }
    },
    {
      "type": "Feature",
      "id": 161,
      "geometry": {
        "type": "Point",
        "coordinates": [
          -72.0962600000049,
          41.3565000000626
        ]
      },
      "properties": {
        "city": "New London",
        "state": "CT",
        "ObjectId": 161,
        "theaters": [
          {
            "name": "Griswold Players"
          }
        ]
      }
    },
    {
      "type": "Feature",
      "id": 162,
      "geometry": {
        "type": "Point",
        "coordinates": [
          -83.1589099997874,
          42.1307000002754
        ]
      },
      "properties": {
        "city": "Gross Ile",
        "state": "MI",
        "ObjectId": 162,
        "theaters": [
          {
            "name": "Gross Ile Summer Theatre"
          }
        ]
      }
    },
    {
      "type": "Feature",
      "id": 163,
      "geometry": {
        "type": "Point",
        "coordinates": [
          -74.739250000259,
          41.7736600002679
        ]
      },
      "properties": {
        "city": "Ferndale",
        "state": "NY",
        "ObjectId": 163,
        "theaters": [
          {
            "name": "Grossinger Playhouse"
          }
        ]
      }
    },
    {
      "type": "Feature",
      "id": 164,
      "geometry": {
        "type": "Point",
        "coordinates": [
          -72.0714499997047,
          41.3548599999663
        ]
      },
      "properties": {
        "city": "Groton",
        "state": "CT",
        "ObjectId": 164,
        "theaters": [
          {
            "name": "Groton Playhouse"
          }
        ]
      }
    },
    {
      "type": "Feature",
      "id": 627,
      "geometry": {
        "type": "Point",
        "coordinates": [
          -71.2919799996026,
          42.2968900001274
        ]
      },
      "properties": {
        "city": "Wellesley",
        "state": "MA",
        "ObjectId": 627,
        "theaters": [
          {
            "name": "Group 20 Players, Theatre-on-the-Green"
          },
          {
            "name": "Wellesley Summer Theatre"
          }
        ]
      }
    },
    {
      "type": "Feature",
      "id": 166,
      "geometry": {
        "type": "Point",
        "coordinates": [
          -73.1609300003384,
          41.2418600001507
        ]
      },
      "properties": {
        "city": "Nichols",
        "state": "CT",
        "ObjectId": 166,
        "theaters": [
          {
            "name": "Pine Brook Club Group"
          }
        ]
      }
    },
    {
      "type": "Feature",
      "id": 167,
      "geometry": {
        "type": "Point",
        "coordinates": [
          -75.9850800001244,
          41.1571999998052
        ]
      },
      "properties": {
        "city": "Nuangola",
        "state": "PA",
        "ObjectId": 167,
        "theaters": [
          {
            "name": "Grove Theatre"
          }
        ]
      }
    },
    {
      "type": "Feature",
      "id": 169,
      "geometry": {
        "type": "Point",
        "coordinates": [
          -75.5807500002362,
          40.6210499999399
        ]
      },
      "properties": {
        "city": "Guthsville",
        "state": "PA",
        "ObjectId": 169,
        "theaters": [
          {
            "name": "Guthsville Playhouse"
          }
        ]
      }
    },
    {
      "type": "Feature",
      "id": 170,
      "geometry": {
        "type": "Point",
        "coordinates": [
          -70.8537099998718,
          43.2648200000902
        ]
      },
      "properties": {
        "city": "Berwick",
        "state": "ME",
        "ObjectId": 170,
        "theaters": [
          {
            "name": "Hackmatack Playhouse"
          }
        ]
      }
    },
    {
      "type": "Feature",
      "id": 171,
      "geometry": {
        "type": "Point",
        "coordinates": [
          -79.1344299998567,
          42.8775800003092
        ]
      },
      "properties": {
        "city": "Sherkston",
        "state": "Ontario",
        "ObjectId": 171,
        "theaters": [
          {
            "name": "Halloway Bay Playhouse"
          }
        ]
      }
    },
    {
      "type": "Feature",
      "id": 172,
      "geometry": {
        "type": "Point",
        "coordinates": [
          -72.9016099999118,
          41.3842300002903
        ]
      },
      "properties": {
        "city": "Hamden",
        "state": "CT",
        "ObjectId": 172,
        "theaters": [
          {
            "name": "Hamden Summer Theatre"
          }
        ]
      }
    },
    {
      "type": "Feature",
      "id": 173,
      "geometry": {
        "type": "Point",
        "coordinates": [
          -72.3014099996793,
          40.9373599997202
        ]
      },
      "properties": {
        "city": "Bridgehampton",
        "state": "NY",
        "ObjectId": 173,
        "theaters": [
          {
            "name": "Hampton House"
          }
        ]
      }
    },
    {
      "type": "Feature",
      "id": 174,
      "geometry": {
        "type": "Point",
        "coordinates": [
          -70.8395099995956,
          42.9355599999855
        ]
      },
      "properties": {
        "city": "Hampton",
        "state": "NH",
        "ObjectId": 174,
        "theaters": [
          {
            "name": "Hampton Playhouse"
          }
        ]
      }
    },
    {
      "type": "Feature",
      "id": 297,
      "geometry": {
        "type": "Point",
        "coordinates": [
          -70.7626300000645,
          41.703090000087
        ]
      },
      "properties": {
        "city": "Marion",
        "state": "MA",
        "ObjectId": 297,
        "theaters": [
          {
            "name": "Harbor Playhouse"
          },
          {
            "name": "Marion Harbor Playhouse"
          }
        ]
      }
    },
    {
      "type": "Feature",
      "id": 177,
      "geometry": {
        "type": "Point",
        "coordinates": [
          -74.0133600000068,
          40.6918500003161
        ]
      },
      "properties": {
        "city": "Governor's Island",
        "state": "NY",
        "ObjectId": 177,
        "theaters": [
          {
            "name": "Harbor Theatre"
          }
        ]
      }
    },
    {
      "type": "Feature",
      "id": 178,
      "geometry": {
        "type": "Point",
        "coordinates": [
          -75.9574699995926,
          42.1159000000334
        ]
      },
      "properties": {
        "city": "Johnson City",
        "state": "NY",
        "ObjectId": 178,
        "theaters": [
          {
            "name": "Harmony Playhouse"
          }
        ]
      }
    },
    {
      "type": "Feature",
      "id": 179,
      "geometry": {
        "type": "Point",
        "coordinates": [
          -75.1180099999638,
          40.7042099999472
        ]
      },
      "properties": {
        "city": "Stewartville",
        "state": "NJ",
        "ObjectId": 179,
        "theaters": [
          {
            "name": "Harry Bannister Theatre"
          }
        ]
      }
    },
    {
      "type": "Feature",
      "id": 181,
      "geometry": {
        "type": "Point",
        "coordinates": [
          -77.6346199997369,
          40.5336499999191
        ]
      },
      "properties": {
        "city": "Alderson",
        "state": "PA",
        "ObjectId": 181,
        "theaters": [
          {
            "name": "Harvey's Lake Theatre"
          }
        ]
      }
    },
    {
      "type": "Feature",
      "id": 182,
      "geometry": {
        "type": "Point",
        "coordinates": [
          -72.1849399996137,
          42.3667399998019
        ]
      },
      "properties": {
        "city": "Harwick",
        "state": "MA",
        "ObjectId": 182,
        "theaters": [
          {
            "name": "Harwick Junior Theatre"
          }
        ]
      }
    },
    {
      "type": "Feature",
      "id": 482,
      "geometry": {
        "type": "Point",
        "coordinates": [
          -96.7073000000688,
          40.8136200000175
        ]
      },
      "properties": {
        "city": "Lincoln",
        "state": "NE",
        "ObjectId": 482,
        "theaters": [
          {
            "name": "Hayloft Summer Theatre"
          },
          {
            "name": "Nebraska Repertory Theatre"
          }
        ]
      }
    },
    {
      "type": "Feature",
      "id": 511,
      "geometry": {
        "type": "Point",
        "coordinates": [
          -75.4702699997227,
          40.6026299999024
        ]
      },
      "properties": {
        "city": "Allentown",
        "state": "PA",
        "ObjectId": 511,
        "theaters": [
          {
            "name": "Hayloft Summer Theatre"
          },
          {
            "name": "Melody Circle"
          },
          {
            "name": "Muhlenberg College Summer Music Theatre Festival"
          }
        ]
      }
    },
    {
      "type": "Feature",
      "id": 185,
      "geometry": {
        "type": "Point",
        "coordinates": [
          -75.3966299997408,
          39.9079500002019
        ]
      },
      "properties": {
        "city": "Moylan-Rose",
        "state": "PA",
        "ObjectId": 185,
        "theaters": [
          {
            "name": "Hedgerow Theatre"
          }
        ]
      }
    },
    {
      "type": "Feature",
      "id": 775,
      "geometry": {
        "type": "Point",
        "coordinates": [
          -78.4775600000128,
          38.0321299999464
        ]
      },
      "properties": {
        "city": "Charlottesville",
        "state": "VA",
        "ObjectId": 775,
        "theaters": [
          {
            "name": "Heritage Repertory Theatre"
          },
          {
            "name": "University of Virginia Summer Theatre"
          }
        ]
      }
    },
    {
      "type": "Feature",
      "id": 188,
      "geometry": {
        "type": "Point",
        "coordinates": [
          -87.7992000003882,
          42.18568999972
        ]
      },
      "properties": {
        "city": "Highland Park",
        "state": "IL",
        "ObjectId": 188,
        "theaters": [
          {
            "name": "Highland Park Music Theatre"
          }
        ]
      }
    },
    {
      "type": "Feature",
      "id": 189,
      "geometry": {
        "type": "Point",
        "coordinates": [
          -94.0024099996359,
          44.1673999998848
        ]
      },
      "properties": {
        "city": "Mankato",
        "state": "MN",
        "ObjectId": 189,
        "theaters": [
          {
            "name": "Highland Summer Theatre"
          }
        ]
      }
    },
    {
      "type": "Feature",
      "id": 399,
      "geometry": {
        "type": "Point",
        "coordinates": [
          -74.9213699996906,
          38.9354700002556
        ]
      },
      "properties": {
        "city": "Cape May",
        "state": "NJ",
        "ObjectId": 399,
        "theaters": [
          {
            "name": "Hilda Spong Players"
          },
          {
            "name": "Cape May Playhouse"
          },
          {
            "name": "Cape May Stage"
          },
          {
            "name": "Cape May Theatre"
          }
        ]
      }
    },
    {
      "type": "Feature",
      "id": 191,
      "geometry": {
        "type": "Point",
        "coordinates": [
          -76.6266600000961,
          39.4202799996918
        ]
      },
      "properties": {
        "city": "Lutherville",
        "state": "MD",
        "ObjectId": 191,
        "theaters": [
          {
            "name": "Hilltop Theatre"
          }
        ]
      }
    },
    {
      "type": "Feature",
      "id": 192,
      "geometry": {
        "type": "Point",
        "coordinates": [
          -87.9274799996789,
          41.803680000178
        ]
      },
      "properties": {
        "city": "Hinsdale",
        "state": "IL",
        "ObjectId": 192,
        "theaters": [
          {
            "name": "Hinsdale Summer Theatre"
          }
        ]
      }
    },
    {
      "type": "Feature",
      "id": 193,
      "geometry": {
        "type": "Point",
        "coordinates": [
          -74.8261799999476,
          41.0886899998406
        ]
      },
      "properties": {
        "city": "Swartswood",
        "state": "NJ",
        "ObjectId": 193,
        "theaters": [
          {
            "name": "Holiday Arena Theatre"
          }
        ]
      }
    },
    {
      "type": "Feature",
      "id": 194,
      "geometry": {
        "type": "Point",
        "coordinates": [
          -74.7831099996643,
          40.230429999907
        ]
      },
      "properties": {
        "city": "West End",
        "state": "NJ",
        "ObjectId": 194,
        "theaters": [
          {
            "name": "Hollywood Players"
          }
        ]
      }
    },
    {
      "type": "Feature",
      "id": 195,
      "geometry": {
        "type": "Point",
        "coordinates": [
          -86.1018400003242,
          42.7731699998295
        ]
      },
      "properties": {
        "city": "Holland",
        "state": "MI",
        "ObjectId": 195,
        "theaters": [
          {
            "name": "Hope Summer Repertory Theatre"
          }
        ]
      }
    },
    {
      "type": "Feature",
      "id": 196,
      "geometry": {
        "type": "Point",
        "coordinates": [
          -71.6759799999204,
          43.1916799999692
        ]
      },
      "properties": {
        "city": "Hopkinton",
        "state": "NH",
        "ObjectId": 196,
        "theaters": [
          {
            "name": "Hopkinton Playhouse"
          }
        ]
      }
    },
    {
      "type": "Feature",
      "id": 197,
      "geometry": {
        "type": "Point",
        "coordinates": [
          -85.9063800000587,
          37.1805299997211
        ]
      },
      "properties": {
        "city": "Horse Cave",
        "state": "KY",
        "ObjectId": 197,
        "theaters": [
          {
            "name": "Horse Cave Theatre"
          }
        ]
      }
    },
    {
      "type": "Feature",
      "id": 198,
      "geometry": {
        "type": "Point",
        "coordinates": [
          -96.9972100002854,
          37.2408099997589
        ]
      },
      "properties": {
        "city": "Winfield",
        "state": "KS",
        "ObjectId": 198,
        "theaters": [
          {
            "name": "Horsefeathers & Applesauce Summer Dinner Theatre"
          }
        ]
      }
    },
    {
      "type": "Feature",
      "id": 201,
      "geometry": {
        "type": "Point",
        "coordinates": [
          -74.4174799998327,
          40.617809999698
        ]
      },
      "properties": {
        "city": "Plainfield",
        "state": "NJ",
        "ObjectId": 201,
        "theaters": [
          {
            "name": "Actor's Theatre"
          }
        ]
      }
    },
    {
      "type": "Feature",
      "id": 202,
      "geometry": {
        "type": "Point",
        "coordinates": [
          -70.8668699998822,
          42.2774499999677
        ]
      },
      "properties": {
        "city": "Nantasket",
        "state": "MA",
        "ObjectId": 202,
        "theaters": [
          {
            "name": "Actors' Theatre"
          }
        ]
      }
    },
    {
      "type": "Feature",
      "id": 203,
      "geometry": {
        "type": "Point",
        "coordinates": [
          -72.0669699998731,
          43.4315200002173
        ]
      },
      "properties": {
        "city": "Georges Mills",
        "state": "NH",
        "ObjectId": 203,
        "theaters": [
          {
            "name": "Lake Sunapee Playhouse"
          }
        ]
      }
    },
    {
      "type": "Feature",
      "id": 329,
      "geometry": {
        "type": "Point",
        "coordinates": [
          -122.419640000037,
          37.777119999905
        ]
      },
      "properties": {
        "city": "San Francisco",
        "state": "CA",
        "ObjectId": 329,
        "theaters": [
          {
            "name": "Actors' Workshop Guild"
          },
          {
            "name": "Garden Court Dinner Theatre"
          }
        ]
      }
    },
    {
      "type": "Feature",
      "id": 205,
      "geometry": {
        "type": "Point",
        "coordinates": [
          -73.6350899998484,
          40.7264499998716
        ]
      },
      "properties": {
        "city": "Garden City",
        "state": "NY",
        "ObjectId": 205,
        "theaters": [
          {
            "name": "Adelphi College Summer Theatre"
          }
        ]
      }
    },
    {
      "type": "Feature",
      "id": 206,
      "geometry": {
        "type": "Point",
        "coordinates": [
          -73.6437599999816,
          43.3112199997123
        ]
      },
      "properties": {
        "city": "Glen Falls",
        "state": "NY",
        "ObjectId": 206,
        "theaters": [
          {
            "name": "Adirondack Theatre Festival"
          }
        ]
      }
    },
    {
      "type": "Feature",
      "id": 587,
      "geometry": {
        "type": "Point",
        "coordinates": [
          -73.7552100004406,
          42.6515500002238
        ]
      },
      "properties": {
        "city": "Albany",
        "state": "NY",
        "ObjectId": 587,
        "theaters": [
          {
            "name": "Albany Stock Company"
          },
          {
            "name": "Park Playhouse"
          }
        ]
      }
    },
    {
      "type": "Feature",
      "id": 209,
      "geometry": {
        "type": "Point",
        "coordinates": [
          -71.3433099999401,
          43.6698899997054
        ]
      },
      "properties": {
        "city": "Lake Winnipesaukee",
        "state": "NH",
        "ObjectId": 209,
        "theaters": [
          {
            "name": "Lake Winnipesaukee Summer Theatre"
          }
        ]
      }
    },
    {
      "type": "Feature",
      "id": 210,
      "geometry": {
        "type": "Point",
        "coordinates": [
          -73.8085299999995,
          40.7017899998615
        ]
      },
      "properties": {
        "city": "Jamaica",
        "state": "NY",
        "ObjectId": 210,
        "theaters": [
          {
            "name": "Alden Tehatre"
          }
        ]
      }
    },
    {
      "type": "Feature",
      "id": 211,
      "geometry": {
        "type": "Point",
        "coordinates": [
          -88.0912599996598,
          42.1974700000779
        ]
      },
      "properties": {
        "city": "Lake Zurich",
        "state": "IL",
        "ObjectId": 211,
        "theaters": [
          {
            "name": "Lake Zurich Playhouse"
          }
        ]
      }
    },
    {
      "type": "Feature",
      "id": 213,
      "geometry": {
        "type": "Point",
        "coordinates": [
          -71.4085600001714,
          43.546660000304
        ]
      },
      "properties": {
        "city": "Gilford",
        "state": "NH",
        "ObjectId": 213,
        "theaters": [
          {
            "name": "Lakes Region Playhouse"
          }
        ]
      }
    },
    {
      "type": "Feature",
      "id": 214,
      "geometry": {
        "type": "Point",
        "coordinates": [
          -77.1293900000377,
          40.149719999715
        ]
      },
      "properties": {
        "city": "Boiling Springs",
        "state": "PA",
        "ObjectId": 214,
        "theaters": [
          {
            "name": "Allenberry Playhouse"
          }
        ]
      }
    },
    {
      "type": "Feature",
      "id": 215,
      "geometry": {
        "type": "Point",
        "coordinates": [
          -71.5003599996789,
          43.6559500001998
        ]
      },
      "properties": {
        "city": "Meredith",
        "state": "NH",
        "ObjectId": 215,
        "theaters": [
          {
            "name": "Lakes Region Summer Theatre"
          }
        ]
      }
    },
    {
      "type": "Feature",
      "id": 312,
      "geometry": {
        "type": "Point",
        "coordinates": [
          -74.605179999636,
          41.7324999997174
        ]
      },
      "properties": {
        "city": "Fallsburg",
        "state": "NY",
        "ObjectId": 312,
        "theaters": [
          {
            "name": "Ambassador Music Hall"
          },
          {
            "name": "Flagler Players"
          }
        ]
      }
    },
    {
      "type": "Feature",
      "id": 217,
      "geometry": {
        "type": "Point",
        "coordinates": [
          -90.1331700001477,
          43.2096699997253
        ]
      },
      "properties": {
        "city": "Spring Green",
        "state": "WI",
        "ObjectId": 217,
        "theaters": [
          {
            "name": "American Players Theatre"
          }
        ]
      }
    },
    {
      "type": "Feature",
      "id": 218,
      "geometry": {
        "type": "Point",
        "coordinates": [
          -71.7380700000699,
          42.8440699997573
        ]
      },
      "properties": {
        "city": "Wilton",
        "state": "NH",
        "ObjectId": 218,
        "theaters": [
          {
            "name": "Andy's Summer Playhouse"
          }
        ]
      }
    },
    {
      "type": "Feature",
      "id": 770,
      "geometry": {
        "type": "Point",
        "coordinates": [
          -83.7484699998585,
          42.2820999997885
        ]
      },
      "properties": {
        "city": "Ann Arbor",
        "state": "MI",
        "ObjectId": 770,
        "theaters": [
          {
            "name": "Ann Arbor Drama Festival"
          },
          {
            "name": "Lydia Mendelssohn Theatre"
          },
          {
            "name": "University of Michigan Theatre"
          }
        ]
      }
    },
    {
      "type": "Feature",
      "id": 220,
      "geometry": {
        "type": "Point",
        "coordinates": [
          -83.8906499998497,
          39.8032400003332
        ]
      },
      "properties": {
        "city": "Yellow Springs & Toledo",
        "state": "OH",
        "ObjectId": 220,
        "theaters": [
          {
            "name": "Antioch Area Theatre"
          }
        ]
      }
    },
    {
      "type": "Feature",
      "id": 221,
      "geometry": {
        "type": "Point",
        "coordinates": [
          -77.0014100003226,
          41.2409399996731
        ]
      },
      "properties": {
        "city": "Williamsport",
        "state": "PA",
        "ObjectId": 221,
        "theaters": [
          {
            "name": "Arena Summer Theatre"
          }
        ]
      }
    },
    {
      "type": "Feature",
      "id": 222,
      "geometry": {
        "type": "Point",
        "coordinates": [
          -69.9899599996264,
          41.7864799998573
        ]
      },
      "properties": {
        "city": "Orleans",
        "state": "MA",
        "ObjectId": 222,
        "theaters": [
          {
            "name": "Arena Theatre"
          }
        ]
      }
    },
    {
      "type": "Feature",
      "id": 223,
      "geometry": {
        "type": "Point",
        "coordinates": [
          -92.9471700002171,
          39.0697200003126
        ]
      },
      "properties": {
        "city": "Arrow Rock",
        "state": "MO",
        "ObjectId": 223,
        "theaters": [
          {
            "name": "Arrow Rock Lyceum Theatre"
          }
        ]
      }
    },
    {
      "type": "Feature",
      "id": 433,
      "geometry": {
        "type": "Point",
        "coordinates": [
          -75.4887599998595,
          39.8112399998875
        ]
      },
      "properties": {
        "city": "Arden",
        "state": "DE",
        "ObjectId": 433,
        "theaters": [
          {
            "name": "Artists' Theatre"
          },
          {
            "name": "Robin Hood Playhouse"
          }
        ]
      }
    },
    {
      "type": "Feature",
      "id": 225,
      "geometry": {
        "type": "Point",
        "coordinates": [
          -79.044419999554,
          43.1740699997682
        ]
      },
      "properties": {
        "city": "Lewiston",
        "state": "NY",
        "ObjectId": 225,
        "theaters": [
          {
            "name": "Artpark"
          }
        ]
      }
    },
    {
      "type": "Feature",
      "id": 226,
      "geometry": {
        "type": "Point",
        "coordinates": [
          -70.4784299999158,
          43.3819600002398
        ]
      },
      "properties": {
        "city": "Arundel",
        "state": "ME",
        "ObjectId": 226,
        "theaters": [
          {
            "name": "Arundel Barn Playhouse"
          }
        ]
      }
    },
    {
      "type": "Feature",
      "id": 227,
      "geometry": {
        "type": "Point",
        "coordinates": [
          -70.5331200003516,
          43.392670000223
        ]
      },
      "properties": {
        "city": "Kennebunk",
        "state": "ME",
        "ObjectId": 227,
        "theaters": [
          {
            "name": "Arundel Opera Theatre"
          }
        ]
      }
    },
    {
      "type": "Feature",
      "id": 228,
      "geometry": {
        "type": "Point",
        "coordinates": [
          -72.6440100001664,
          41.768970000144
        ]
      },
      "properties": {
        "city": "East Hartford",
        "state": "CT",
        "ObjectId": 228,
        "theaters": [
          {
            "name": "Astor Theatre"
          }
        ]
      }
    },
    {
      "type": "Feature",
      "id": 230,
      "geometry": {
        "type": "Point",
        "coordinates": [
          -88.4171400000217,
          44.261780000101
        ]
      },
      "properties": {
        "city": "Appleton",
        "state": "WI",
        "ObjectId": 230,
        "theaters": [
          {
            "name": "Attic Theatre"
          }
        ]
      }
    },
    {
      "type": "Feature",
      "id": 231,
      "geometry": {
        "type": "Point",
        "coordinates": [
          -76.8656700001455,
          39.1050699996942
        ]
      },
      "properties": {
        "city": "Laurel",
        "state": "MD",
        "ObjectId": 231,
        "theaters": [
          {
            "name": "Avondale Playhouse"
          }
        ]
      }
    },
    {
      "type": "Feature",
      "id": 731,
      "geometry": {
        "type": "Point",
        "coordinates": [
          -86.1501200001849,
          39.7669100002681
        ]
      },
      "properties": {
        "city": "Indianapolis",
        "state": "IN",
        "ObjectId": 731,
        "theaters": [
          {
            "name": "Avondale Summer Theatre"
          },
          {
            "name": "Murat Theatre"
          },
          {
            "name": "Starlight Musicals, Hilton University Brown Theatre"
          }
        ]
      }
    },
    {
      "type": "Feature",
      "id": 233,
      "geometry": {
        "type": "Point",
        "coordinates": [
          -119.018860000037,
          35.3672300000271
        ]
      },
      "properties": {
        "city": "Bakersfield",
        "state": "CA",
        "ObjectId": 233,
        "theaters": [
          {
            "name": "Bakersfield Playhouse"
          }
        ]
      }
    },
    {
      "type": "Feature",
      "id": 234,
      "geometry": {
        "type": "Point",
        "coordinates": [
          -72.6592199996727,
          41.9837299997278
        ]
      },
      "properties": {
        "city": "Suffield",
        "state": "CT",
        "ObjectId": 234,
        "theaters": [
          {
            "name": "Band Box Theatre"
          }
        ]
      }
    },
    {
      "type": "Feature",
      "id": 235,
      "geometry": {
        "type": "Point",
        "coordinates": [
          -68.2072900000976,
          44.3893900001066
        ]
      },
      "properties": {
        "city": "Bar Harbor",
        "state": "ME",
        "ObjectId": 235,
        "theaters": [
          {
            "name": "Bar Harbor Players"
          }
        ]
      }
    },
    {
      "type": "Feature",
      "id": 236,
      "geometry": {
        "type": "Point",
        "coordinates": [
          -73.9082299997112,
          42.0133300000489
        ]
      },
      "properties": {
        "city": "Annandale-on-Hudson",
        "state": "NY",
        "ObjectId": 236,
        "theaters": [
          {
            "name": "Bard Theatre"
          }
        ]
      }
    },
    {
      "type": "Feature",
      "id": 360,
      "geometry": {
        "type": "Point",
        "coordinates": [
          -73.6548799996436,
          43.5579900003011
        ]
      },
      "properties": {
        "city": "Bolton Landing",
        "state": "NY",
        "ObjectId": 360,
        "theaters": [
          {
            "name": "Barn Playhouse"
          },
          {
            "name": "Bolton Landing Summer Playhouse"
          }
        ]
      }
    },
    {
      "type": "Feature",
      "id": 238,
      "geometry": {
        "type": "Point",
        "coordinates": [
          -85.3513699999256,
          42.3353700002567
        ]
      },
      "properties": {
        "city": "Augusta",
        "state": "MI",
        "ObjectId": 238,
        "theaters": [
          {
            "name": "Barn Theatre"
          }
        ]
      }
    },
    {
      "type": "Feature",
      "id": 240,
      "geometry": {
        "type": "Point",
        "coordinates": [
          -71.2623799998494,
          43.8591999999393
        ]
      },
      "properties": {
        "city": "Tamworth",
        "state": "NH",
        "ObjectId": 240,
        "theaters": [
          {
            "name": "The Barnstormers"
          }
        ]
      }
    },
    {
      "type": "Feature",
      "id": 241,
      "geometry": {
        "type": "Point",
        "coordinates": [
          -73.3610400003146,
          42.1963600003132
        ]
      },
      "properties": {
        "city": "Great Barrington",
        "state": "MA",
        "ObjectId": 241,
        "theaters": [
          {
            "name": "Barrington Stage Company"
          }
        ]
      }
    },
    {
      "type": "Feature",
      "id": 242,
      "geometry": {
        "type": "Point",
        "coordinates": [
          -81.9749600000093,
          36.7106400002487
        ]
      },
      "properties": {
        "city": "Abingdon",
        "state": "VA",
        "ObjectId": 242,
        "theaters": [
          {
            "name": "Barter Theatre"
          }
        ]
      }
    },
    {
      "type": "Feature",
      "id": 340,
      "geometry": {
        "type": "Point",
        "coordinates": [
          -70.668109999793,
          42.6143499997349
        ]
      },
      "properties": {
        "city": "Gloucester",
        "state": "MA",
        "ObjectId": 340,
        "theaters": [
          {
            "name": "Bass Rocks Theatre"
          },
          {
            "name": "Gloucester School of Theatre"
          }
        ]
      }
    },
    {
      "type": "Feature",
      "id": 244,
      "geometry": {
        "type": "Point",
        "coordinates": [
          -78.1882399998,
          42.9983600003007
        ]
      },
      "properties": {
        "city": "Batavia",
        "state": "NY",
        "ObjectId": 244,
        "theaters": [
          {
            "name": "Batavia Summer Theatre"
          }
        ]
      }
    },
    {
      "type": "Feature",
      "id": 246,
      "geometry": {
        "type": "Point",
        "coordinates": [
          -73.2491699997311,
          40.7202499997439
        ]
      },
      "properties": {
        "city": "Bay Shore",
        "state": "NY",
        "ObjectId": 246,
        "theaters": [
          {
            "name": "Bay Shore Community Players"
          },
          {
            "name": "Bayshore Summer Theatre"
          }
        ]
      }
    },
    {
      "type": "Feature",
      "id": 247,
      "geometry": {
        "type": "Point",
        "coordinates": [
          -70.6344200001957,
          41.6050200003173
        ]
      },
      "properties": {
        "city": "West Falmouth",
        "state": "MA",
        "ObjectId": 247,
        "theaters": [
          {
            "name": "Beach Theatre"
          }
        ]
      }
    },
    {
      "type": "Feature",
      "id": 248,
      "geometry": {
        "type": "Point",
        "coordinates": [
          -74.5755499997456,
          39.2794000002952
        ]
      },
      "properties": {
        "city": "Ocean City",
        "state": "NJ",
        "ObjectId": 248,
        "theaters": [
          {
            "name": "Beach Theatre"
          }
        ]
      }
    },
    {
      "type": "Feature",
      "id": 249,
      "geometry": {
        "type": "Point",
        "coordinates": [
          -73.9728199996184,
          41.5066600001723
        ]
      },
      "properties": {
        "city": "Beacon",
        "state": "NY",
        "ObjectId": 249,
        "theaters": [
          {
            "name": "Beacon Summer Theatre"
          }
        ]
      }
    },
    {
      "type": "Feature",
      "id": 250,
      "geometry": {
        "type": "Point",
        "coordinates": [
          -78.5083399997737,
          39.9951700000806
        ]
      },
      "properties": {
        "city": "Bedford Springs",
        "state": "PA",
        "ObjectId": 250,
        "theaters": [
          {
            "name": "Bedford Springs Playhouse"
          }
        ]
      }
    },